{
"type": "FeatureCollection",
"features": [
{ "type": "Feature", "properties": { "name": "Academia Engiadina Samedan Mittelschule ", "address": "Quadratscha 18, 7503 Samedan", "canton": "Vaud", "count": 1 }, "geometry": { "type": "Point", "coordinates": [ 6.658441, 46.506575 ] } },
{ "type": "Feature", "properties": { "name": "Alte Kantonsschule Aarau", "address": "Bahnhofstrasse 91, 5001 Aarau", "canton": "Aargau", "count": 1 }, "geometry": { "type": "Point", "coordinates": [ 8.053175, 47.393547 ] } },
{ "type": "Feature", "properties": { "name": "Bündner Kantonsschule ", "address": "Arosastrasse 2, 7000 Chur", "canton": "Graubünden", "count": 1 }, "geometry": { "type": "Point", "coordinates": [ 9.536316, 46.848527 ] } },
{ "type": "Feature", "properties": { "name": "Collège Calvin ", "address": "Rue Théodore De-Bèze 2-4, 1206 Genève", "canton": "Genève", "count": 1 }, "geometry": { "type": "Point", "coordinates": [ 6.152066, 46.200454 ] } },
{ "type": "Feature", "properties": { "name": "Collège Claparède ", "address": "Chemin de Fossard 61, 1231 Chêne-Bougeries", "canton": "Genève", "count": 1 }, "geometry": { "type": "Point", "coordinates": [ 6.184946, 46.18937 ] } },
{ "type": "Feature", "properties": { "name": "Collège de Candolle ", "address": "-M.-Mirany, Avenue A.-M.-Mirany 36, 1225 Chêne-Bourg", "canton": "Genève", "count": 1 }, "geometry": { "type": "Point", "coordinates": [ 6.204101, 46.204785 ] } },
{ "type": "Feature", "properties": { "name": "Collège de Gambach", "address": "Avenue Louis-Weck-Reynold 9, 1700 Fribourg", "canton": "Fribourg", "count": 1 }, "geometry": { "type": "Point", "coordinates": [ 7.149927, 46.807011 ] } },
{ "type": "Feature", "properties": { "name": "Collège de Saussure ", "address": "Vieux-Chemin-d'Onex 9, 1213 Lancy", "canton": "Genève", "count": 1 }, "geometry": { "type": "Point", "coordinates": [ 6.114267, 46.185143 ] } },
{ "type": "Feature", "properties": { "name": "Collège du Sud", "address": "Rue de Dardens 79, 1630 Bulle", "canton": "Fribourg", "count": 1 }, "geometry": { "type": "Point", "coordinates": [ 7.054411, 46.625197 ] } },
{ "type": "Feature", "properties": { "name": "Collège et école de commerce André-Chavanne ", "address": "Avenue Trembley 14, 1209 Genève", "canton": "Uri", "count": 1 }, "geometry": { "type": "Point", "coordinates": [ 8.6460146, 46.87756 ] } },
{ "type": "Feature", "properties": { "name": "Collège et école de commerce Nicolas-Bouvier ", "address": "Rue de Saint-Jean 60, 1203 Genève", "canton": "Genève", "count": 1 }, "geometry": { "type": "Point", "coordinates": [ 6.132723, 46.205223 ] } },
{ "type": "Feature", "properties": { "name": "Collège et école du commerce Emilie-Gourd ", "address": "Rue Le-Corbusier 15, 1208 Genève", "canton": "Genève", "count": 1 }, "geometry": { "type": "Point", "coordinates": [ 6.168081, 46.193751 ] } },
{ "type": "Feature", "properties": { "name": "Collège Madame de Staël ", "address": "Route de St Julien 25, 1227 Carouge", "canton": "Genève", "count": 1 }, "geometry": { "type": "Point", "coordinates": [ 6.134518, 46.176072 ] } },
{ "type": "Feature", "properties": { "name": "Collège Rousseau ", "address": " Avenue du Bouchet 16A, 1209 Genève", "canton": "Genève", "count": 1 }, "geometry": { "type": "Point", "coordinates": [ 6.121852, 46.217763 ] } },
{ "type": "Feature", "properties": { "name": "Collège Sismondi ", "address": "Chemin Eugène-Rigot 3, 1202 Genève", "canton": "Genève", "count": 1 }, "geometry": { "type": "Point", "coordinates": [ 6.142607, 46.221649 ] } },
{ "type": "Feature", "properties": { "name": "Collège St. Michel", "address": " Rue Saint-Pierre Canisius 10, 1700 Fribourg", "canton": "Fribourg", "count": 1 }, "geometry": { "type": "Point", "coordinates": [ 7.158041, 46.833985 ] } },
{ "type": "Feature", "properties": { "name": "Collège Ste. Croix", "address": "Rue Antoine-de-Saint-Exupery 4, Route des Cliniques 15, 1700 Fribourg", "canton": "Fribourg", "count": 1 }, "geometry": { "type": "Point", "coordinates": [ 7.158252, 46.797366 ] } },
{ "type": "Feature", "properties": { "name": "Collège Voltaire ", "address": " Rue Voltaire 21, 1201 Genève", "canton": "Genève", "count": 1 }, "geometry": { "type": "Point", "coordinates": [ 6.136202, 46.207852 ] } },
{ "type": "Feature", "properties": { "name": "Ecole de culture générale Fribourg", "address": "Avenue du Moléson 17, 1700 Fribourg", "canton": "Fribourg", "count": 1 }, "geometry": { "type": "Point", "coordinates": [ 7.147651, 46.806169 ] } },
{ "type": "Feature", "properties": { "name": "Evangelische Mittelschule Schiers ", "address": "Schuderserstrasse 47, 7220 Schiers", "canton": "Graubünden", "count": 1 }, "geometry": { "type": "Point", "coordinates": [ 9.688629, 46.971066 ] } },
{ "type": "Feature", "properties": { "name": "Fachmittelschule Zug (Fachmaturität)", "address": "Hofstrasse 20, 6300 Zug", "canton": "Zug", "count": 1 }, "geometry": { "type": "Point", "coordinates": [ 8.515423, 47.160613 ] } },
{ "type": "Feature", "properties": { "name": "FMS Basel", "address": "Engelgasse 120, 4052 Basel", "canton": "Basel-Stadt", "count": 1 }, "geometry": { "type": "Point", "coordinates": [ 7.605134, 47.547344 ] } },
{ "type": "Feature", "properties": { "name": "Freies Gymnasium Zuerich", "address": "Arbenzstrasse 19, 8008 Zürich", "canton": "Zürich", "count": 1 }, "geometry": { "type": "Point", "coordinates": [ 8.554952, 47.359603 ] } },
{ "type": "Feature", "properties": { "name": "Gymnase Auguste Piccard", "address": "Chemin de Bellerive 16, 1007 Lausanne", "canton": "Vaud", "count": 1 }, "geometry": { "type": "Point", "coordinates": [ 6.620731, 46.511439 ] } },
{ "type": "Feature", "properties": { "name": "Gymnase d’Yverdon ", "address": "Route du Gymnase 6, 1400 Cheseaux-Noréaz", "canton": "Vaud", "count": 1 }, "geometry": { "type": "Point", "coordinates": [ 6.666471, 46.780408 ] } },
{ "type": "Feature", "properties": { "name": "Gymnase de Beaulieu ", "address": "Rue du Maupas 50, 1004 Lausanne", "canton": "Vaud", "count": 1 }, "geometry": { "type": "Point", "coordinates": [ 6.623124, 46.527181 ] } },
{ "type": "Feature", "properties": { "name": "Gymnase de Burier", "address": "Route de Chailly 170, 1814 La Tour-de-Peilz", "canton": "Vaud", "count": 1 }, "geometry": { "type": "Point", "coordinates": [ 6.877676, 46.450291 ] } },
{ "type": "Feature", "properties": { "name": "Gymnase de Chamblandes", "address": " Avenue des Désertes 29, 1009 Pully", "canton": "not found", "count": 1 }, "geometry": { "type": "Point", "coordinates": [ 6.658441, 6.506575 ] } },
{ "type": "Feature", "properties": { "name": "Gymnase de la Cité ", "address": "Place de la Cathédrale 1, 1014 Lausanne", "canton": "Vaud", "count": 1 }, "geometry": { "type": "Point", "coordinates": [ 6.634501, 46.523567 ] } },
{ "type": "Feature", "properties": { "name": "Gymnase de la rue des Alpes Bienne", "address": "Ländtestrasse 8, 2503 Biel", "canton": "Bern", "count": 1 }, "geometry": { "type": "Point", "coordinates": [ 7.234762, 47.132986 ] } },
{ "type": "Feature", "properties": { "name": "Gymnase de Morges ", "address": "Avenue de Marcelin 33, 1110 Morges", "canton": "Vaud", "count": 1 }, "geometry": { "type": "Point", "coordinates": [ 6.485026, 46.517711 ] } },
{ "type": "Feature", "properties": { "name": "Gymnase de Nyon", "address": "Route de Divonne 8, 1260 Nyon", "canton": "Vaud", "count": 1 }, "geometry": { "type": "Point", "coordinates": [ 6.23165, 46.38289 ] } },
{ "type": "Feature", "properties": { "name": "Gymnase du Bugnon ", "address": " Rue du Bugnon 5, 1005 Lausanne", "canton": "Vaud", "count": 1 }, "geometry": { "type": "Point", "coordinates": [ 6.640213, 46.522628 ] } },
{ "type": "Feature", "properties": { "name": "Gymnase français de Bienne", "address": "Ländtestrasse 8, 2503 Biel", "canton": "Bern", "count": 1 }, "geometry": { "type": "Point", "coordinates": [ 7.234762, 47.132986 ] } },
{ "type": "Feature", "properties": { "name": "Gymnase intercantonal de la Broye", "address": "Rue du Gymnase 1, 1530 Payerne", "canton": "Vaud", "count": 1 }, "geometry": { "type": "Point", "coordinates": [ 6.940385, 46.814514 ] } },
{ "type": "Feature", "properties": { "name": "Gymnasium am Münsterplatz", "address": "Münsterpl. 15, 4051 Basel", "canton": "Basel-Stadt", "count": 1 }, "geometry": { "type": "Point", "coordinates": [ 7.591321, 47.55645 ] } },
{ "type": "Feature", "properties": { "name": "Gymnasium Bäumlihof", "address": "Gymnasium Bäumlihof", "canton": "Basel-Stadt", "count": 1 }, "geometry": { "type": "Point", "coordinates": [ 7.62669, 47.567565 ] } },
{ "type": "Feature", "properties": { "name": "Gymnasium Beaulieu ", "address": "Rue du Maupas 50, 1004 Lausanne", "canton": "Vaud", "count": 1 }, "geometry": { "type": "Point", "coordinates": [ 6.666648, 46.746408 ] } },
{ "type": "Feature", "properties": { "name": "Gymnasium Burgdorf", "address": "Pestalozzistrasse 17, 3400 Burgdorf", "canton": "Bern", "count": 1 }, "geometry": { "type": "Point", "coordinates": [ 7.620738, 47.05629 ] } },
{ "type": "Feature", "properties": { "name": "Gymnasium Hofwil", "address": "Hofwilstrasse 51, 3053 Münchenbuchsee", "canton": "Bern", "count": 1 }, "geometry": { "type": "Point", "coordinates": [ 7.462544, 47.020343 ] } },
{ "type": "Feature", "properties": { "name": "Gymnasium Immensee", "address": "Bethlehemweg 12, 6405 Immensee", "canton": "Schwyz", "count": 1 }, "geometry": { "type": "Point", "coordinates": [ 8.454065, 47.09305 ] } },
{ "type": "Feature", "properties": { "name": "Gymnasium Interlaken", "address": "Mittengrabenstrasse 8, 3800 Interlaken", "canton": "Bern", "count": 1 }, "geometry": { "type": "Point", "coordinates": [ 7.870406, 46.684829 ] } },
{ "type": "Feature", "properties": { "name": "Gymnasium Kloster Disentis ", "address": "Via Sogn Sigisbert 1, 7180 Disentis", "canton": "Graubünden", "count": 1 }, "geometry": { "type": "Point", "coordinates": [ 8.855051, 46.707111 ] } },
{ "type": "Feature", "properties": { "name": "Gymnasium Laufen", "address": "Steinackerweg 7, 4242 Laufen", "canton": "Basel-Landschaft", "count": 1 }, "geometry": { "type": "Point", "coordinates": [ 7.506513, 47.420727 ] } },
{ "type": "Feature", "properties": { "name": "Gymnasium Leonhard", "address": "Kohlenberg 17, 4051 Basel", "canton": "Basel-Stadt", "count": 1 }, "geometry": { "type": "Point", "coordinates": [ 7.587422, 47.554442 ] } },
{ "type": "Feature", "properties": { "name": "Gymnasium Lerbermatt", "address": "Kirchstrasse 64, 3098 Köniz", "canton": "Bern", "count": 1 }, "geometry": { "type": "Point", "coordinates": [ 7.434421, 46.930533 ] } },
{ "type": "Feature", "properties": { "name": "Gymnasium Liestal", "address": "Friedensstrasse 20, 4410 Liestal", "canton": "Basel-Landschaft", "count": 1 }, "geometry": { "type": "Point", "coordinates": [ 7.725434, 47.482011 ] } },
{ "type": "Feature", "properties": { "name": "Gymnasium Münchenstein", "address": "Baselstrasse 33, 4142 Münchenstein", "canton": "Basel-Landschaft", "count": 1 }, "geometry": { "type": "Point", "coordinates": [ 7.616865, 47.527268 ] } },
{ "type": "Feature", "properties": { "name": "Gymnasium Muttenz", "address": "Gründenstrasse 30, 4132 Muttenz", "canton": "Basel-Landschaft", "count": 1 }, "geometry": { "type": "Point", "coordinates": [ 7.640899, 47.533393 ] } },
{ "type": "Feature", "properties": { "name": "Gymnasium Neufeld", "address": "Bremgartenstrasse 133, 3012 Bern", "canton": "Bern", "count": 1 }, "geometry": { "type": "Point", "coordinates": [ 7.428757, 46.959738 ] } },
{ "type": "Feature", "properties": { "name": "Gymnasium Oberwil", "address": "Allschwilerstrasse 100, 4104 Oberwil", "canton": "Basel-Landschaft", "count": 1 }, "geometry": { "type": "Point", "coordinates": [ 7.549806, 47.523261 ] } },
{ "type": "Feature", "properties": { "name": "Gymnasium St. Antonius ", "address": "Hauptgasse 51, 9050 Appenzell", "canton": "Appenzell Innerrhoden", "count": 1 }, "geometry": { "type": "Point", "coordinates": [ 9.4095875, 47.3311981 ] } },
{ "type": "Feature", "properties": { "name": "Gymnasium Thun", "address": "Äussere Ringstrasse 7, 3600 Thun", "canton": "Bern", "count": 1 }, "geometry": { "type": "Point", "coordinates": [ 7.628984, 46.750763 ] } },
{ "type": "Feature", "properties": { "name": "Hochalpines Institut Ftan ", "address": "Chalchera, 7551 Scuol", "canton": "Graubünden", "count": 1 }, "geometry": { "type": "Point", "coordinates": [ 10.242624, 46.792787 ] } },
{ "type": "Feature", "properties": { "name": "Kantonale Mittelschule Uri ", "address": "Gotthardstrasse 59, 6460 Altdorf", "canton": "Uri", "count": 1 }, "geometry": { "type": "Point", "coordinates": [ 8.650631, 46.874722 ] } },
{ "type": "Feature", "properties": { "name": "Kantonsschule Alpenquai Luzern", "address": "lpenquai 46-50, 6005 Luzern", "canton": "Luzern", "count": 1 }, "geometry": { "type": "Point", "coordinates": [ 8.322006, 47.043186 ] } },
{ "type": "Feature", "properties": { "name": "Kantonsschule am Burggraben St.Gallen", "address": "Kantonsschule am Burggraben St.Gallen", "canton": "St. Gallen", "count": 1 }, "geometry": { "type": "Point", "coordinates": [ 9.380205, 47.425686 ] } },
{ "type": "Feature", "properties": { "name": "Kantonsschule Ausserschwyz, Pfäffikon", "address": "Gwattstrasse 2, 8808 Freienbach", "canton": "Schwyz", "count": 1 }, "geometry": { "type": "Point", "coordinates": [ 8.788612, 47.200359 ] } },
{ "type": "Feature", "properties": { "name": "Kantonsschule Baden", "address": "Seminarstrasse 3, 5400 Baden", "canton": "Aargau", "count": 1 }, "geometry": { "type": "Point", "coordinates": [ 8.314086, 47.470328 ] } },
{ "type": "Feature", "properties": { "name": "Kantonsschule Beromuenster", "address": "Kantonsschule Beromuenster", "canton": "Luzern", "count": 1 }, "geometry": { "type": "Point", "coordinates": [ 8.193097, 47.209705 ] } },
{ "type": "Feature", "properties": { "name": "Kantonsschule Bueelrain", "address": "Rosenstrasse 1, 8400 Winterthur", "canton": "Zürich", "count": 1 }, "geometry": { "type": "Point", "coordinates": [ 8.730635, 47.495428 ] } },
{ "type": "Feature", "properties": { "name": "Kantonsschule Frauenfeld", "address": "Ringstrasse 10, 8501 Frauenfeld", "canton": "Thurgau", "count": 1 }, "geometry": { "type": "Point", "coordinates": [ 8.903114, 47.555199 ] } },
{ "type": "Feature", "properties": { "name": "Kantonsschule Freudenberg", "address": "Gutenbergstrasse 15, 8002 Zürich", "canton": "Zürich", "count": 1 }, "geometry": { "type": "Point", "coordinates": [ 8.528511, 47.365182 ] } },
{ "type": "Feature", "properties": { "name": "Kantonsschule Glarus", "address": "Winkelstrasse 1, 8750 Glarus", "canton": "Glarus", "count": 1 }, "geometry": { "type": "Point", "coordinates": [ 9.065966, 47.043653 ] } },
{ "type": "Feature", "properties": { "name": "Kantonsschule Heerbrugg", "address": "Karl Völkerstrasse 11, 9435 Heerbrugg", "canton": "St. Gallen", "count": 1 }, "geometry": { "type": "Point", "coordinates": [ 9.629288, 47.415823 ] } },
{ "type": "Feature", "properties": { "name": "Kantonsschule Kollegium Schwyz", "address": "Kollegiumstrasse 24, 6430 Schwyz", "canton": "Schwyz", "count": 1 }, "geometry": { "type": "Point", "coordinates": [ 8.653466, 47.02461 ] } },
{ "type": "Feature", "properties": { "name": "Kantonsschule Kreuzlingen", "address": "Pestalozzistrasse 7, 8280 Kreuzlingen", "canton": "Thurgau", "count": 1 }, "geometry": { "type": "Point", "coordinates": [ 9.180094, 47.648945 ] } },
{ "type": "Feature", "properties": { "name": "Kantonsschule Kuesnacht", "address": "Kantonsschule Kuesnacht", "canton": "Zürich", "count": 1 }, "geometry": { "type": "Point", "coordinates": [ 8.583271, 47.31726 ] } },
{ "type": "Feature", "properties": { "name": "Kantonsschule Menzingen", "address": "Seminarstrasse 12, 6313 Menzingen", "canton": "Zug", "count": 1 }, "geometry": { "type": "Point", "coordinates": [ 8.585521, 47.182278 ] } },
{ "type": "Feature", "properties": { "name": "Kantonsschule Musegg", "address": "Museggstrasse 22, 6004 Luzern", "canton": "Luzern", "count": 1 }, "geometry": { "type": "Point", "coordinates": [ 8.306069, 47.054804 ] } },
{ "type": "Feature", "properties": { "name": "Kantonsschule Olten ", "address": "Hardfeldstrasse 53, 4600 Olten", "canton": "Luzern", "count": 1 }, "geometry": { "type": "Point", "coordinates": [ 8.306745, 47.054811 ] } },
{ "type": "Feature", "properties": { "name": "Kantonsschule Rychenberg", "address": "Rychenbergstrasse 110, 8400 Winterthur", "canton": "Zürich", "count": 1 }, "geometry": { "type": "Point", "coordinates": [ 8.736977, 47.505143 ] } },
{ "type": "Feature", "properties": { "name": "Kantonsschule Reussbuehl Luzern", "address": "Kantonsschule Reussbuehl Luzern", "canton": "Luzern", "count": 1 }, "geometry": { "type": "Point", "coordinates": [ 8.274676, 47.063871 ] } },
{ "type": "Feature", "properties": { "name": "Kantonsschule Romanshorn", "address": "Weitenzelgstrasse 12, 8590 Romanshorn", "canton": "Thurgau", "count": 1 }, "geometry": { "type": "Point", "coordinates": [ 9.371085, 47.568185 ] } },
{ "type": "Feature", "properties": { "name": "Kantonsschule Sargans", "address": "Pizolstrasse 14, 7320 Sargans", "canton": "St. Gallen", "count": 1 }, "geometry": { "type": "Point", "coordinates": [ 9.43973, 47.044169 ] } },
{ "type": "Feature", "properties": { "name": "Kantonsschule Schaffausen", "address": " Pestalozzistrasse 20, 8200 Schaffhausen", "canton": "Schaffhausen", "count": 1 }, "geometry": { "type": "Point", "coordinates": [ 8.638222, 47.699691 ] } },
{ "type": "Feature", "properties": { "name": "Kantonsschule Seetal ", "address": "Alte Klosterstrasse 15, 6283 Baldegg", "canton": "Luzern", "count": 1 }, "geometry": { "type": "Point", "coordinates": [ 8.280133, 47.179982 ] } },
{ "type": "Feature", "properties": { "name": "Kantonsschule Solothurn ", "address": "Herrenweg 18, 4500 Solothurn", "canton": "Solothurn", "count": 1 }, "geometry": { "type": "Point", "coordinates": [ 7.537913, 47.215093 ] } },
{ "type": "Feature", "properties": { "name": "Kantonsschule Stadelhofen", "address": "Schanzengasse 17, 8001 Zürich", "canton": "Zürich", "count": 1 }, "geometry": { "type": "Point", "coordinates": [ 8.549132, 47.367705 ] } },
{ "type": "Feature", "properties": { "name": "Kantonsschule Trogen", "address": "Kantonsschulstrasse 20-25, 9043 Trogen", "canton": "Appenzell Ausserrhoden", "count": 1 }, "geometry": { "type": "Point", "coordinates": [ 9.461472, 47.408858 ] } },
{ "type": "Feature", "properties": { "name": "Kantonsschule Wattwil", "address": "Näppisuelistrasse 11, 9630 Wattwil", "canton": "St. Gallen", "count": 1 }, "geometry": { "type": "Point", "coordinates": [ 9.087438, 47.301291 ] } },
{ "type": "Feature", "properties": { "name": "Kantonsschule Wettingen", "address": " Klosterstrasse 11, 5430 Wettingen", "canton": "Aargau", "count": 1 }, "geometry": { "type": "Point", "coordinates": [ 8.315834, 47.456895 ] } },
{ "type": "Feature", "properties": { "name": "Kantonsschule Wil ", "address": "Hubstrasse 75, 9501 Wil", "canton": "St. Gallen", "count": 1 }, "geometry": { "type": "Point", "coordinates": [ 9.032995, 47.460127 ] } },
{ "type": "Feature", "properties": { "name": "Kantonsschule Wohlen", "address": "Allmendstrasse 26, 5610 Wohlen", "canton": "Aargau", "count": 1 }, "geometry": { "type": "Point", "coordinates": [ 8.270453, 47.355857 ] } },
{ "type": "Feature", "properties": { "name": "Kantonsschule Zofingen", "address": "Strengelbacherstrasse 25B, 4800 Zofingen", "canton": "Aargau", "count": 1 }, "geometry": { "type": "Point", "coordinates": [ 7.942067, 47.282572 ] } },
{ "type": "Feature", "properties": { "name": "Kantonsschule Zuercher Unterland", "address": "Kantonsschulstrasse 23, 8180 Bülach", "canton": "Zürich", "count": 1 }, "geometry": { "type": "Point", "coordinates": [ 8.547835, 47.518263 ] } },
{ "type": "Feature", "properties": { "name": "Kantonsschule Zuerich Nord", "address": "Birchstrasse 107, 8050 Zürich", "canton": "Zürich", "count": 1 }, "geometry": { "type": "Point", "coordinates": [ 8.535157, 47.408313 ] } },
{ "type": "Feature", "properties": { "name": "Kantonsschule Zug ", "address": "Lüssiweg 24, 6300 Zug", "canton": "Zug", "count": 1 }, "geometry": { "type": "Point", "coordinates": [ 8.523679, 47.174633 ] } },
{ "type": "Feature", "properties": { "name": "Kollegium Gambach", "address": "Avenue Louis-Weck-Reynold 9, 1700 Fribourg", "canton": "Fribourg", "count": 1 }, "geometry": { "type": "Point", "coordinates": [ 7.149975, 46.807418 ] } },
{ "type": "Feature", "properties": { "name": "Kollegium Heilig Kreuz", "address": "Rue Antoine-de-Saint-Exupery 4, Route des Cliniques 15, 1700 Fribourg", "canton": "Fribourg", "count": 1 }, "geometry": { "type": "Point", "coordinates": [ 7.158821, 46.797209 ] } },
{ "type": "Feature", "properties": { "name": "Kollegium St. Fidelis in Stans ", "address": "Mürgstrasse 20, 6371 Stans", "canton": "Nidwalden", "count": 1 }, "geometry": { "type": "Point", "coordinates": [ 8.370256, 46.954857 ] } },
{ "type": "Feature", "properties": { "name": "Kollegium St. Michael", "address": "Zugerbergstrasse 3, 6300 Zug", "canton": "Zug", "count": 1 }, "geometry": { "type": "Point", "coordinates": [ 8.518777, 47.162227 ] } },
{ "type": "Feature", "properties": { "name": "Liceo Cantonale di Bellinzona ", "address": "Via Francesco Chiesa 2, 6500 Bellinzona", "canton": "Ticino", "count": 1 }, "geometry": { "type": "Point", "coordinates": [ 9.01366, 46.196676 ] } },
{ "type": "Feature", "properties": { "name": "Liceo cantonale Locarno", "address": "Via Francesco Chiesa 15A, 6600 Locarno", "canton": "Ticino", "count": 1 }, "geometry": { "type": "Point", "coordinates": [ 8.787708, 46.162983 ] } },
{ "type": "Feature", "properties": { "name": "Liceo di Lugano I", "address": "Viale Carlo Cattaneo 4, 6900 Lugano", "canton": "Ticino", "count": 1 }, "geometry": { "type": "Point", "coordinates": [ 8.960272, 46.005167 ] } },
{ "type": "Feature", "properties": { "name": "Liceo di Lugano II", "address": "Nuova Via S. Gottardo, 6942 Savosa", "canton": "Ticino", "count": 1 }, "geometry": { "type": "Point", "coordinates": [ 8.940864, 46.014608 ] } },
{ "type": "Feature", "properties": { "name": "Liceo di Mendrisio", "address": "Via Agostino Maspoli, 6850 Mendrisio", "canton": "Ticino", "count": 1 }, "geometry": { "type": "Point", "coordinates": [ 8.977794, 45.863277 ] } },
{ "type": "Feature", "properties": { "name": "Lycée Blaise-Cendrars ", "address": "Rue du Succès 41-45, 2300 La Chaux-de-Fonds", "canton": "Neuchâtel", "count": 1 }, "geometry": { "type": "Point", "coordinates": [ 6.807835, 47.095712 ] } },
{ "type": "Feature", "properties": { "name": "Lycée cantonal de Porrentruy", "address": "Place Blarer-de-Wartensee 2, 2900 Porrentruy", "canton": "Jura", "count": 1 }, "geometry": { "type": "Point", "coordinates": [ 7.075995, 47.414235 ] } },
{ "type": "Feature", "properties": { "name": "Lycée Délemont", "address": "Avenue de la Gare 7, 2800 Delémont", "canton": "Jura", "count": 1 }, "geometry": { "type": "Point", "coordinates": [ 7.350126, 47.365743 ] } },
{ "type": "Feature", "properties": { "name": "Lycée Denis-de Rougemont", "address": "Rue Abram-Louis-Breguet 3, 2000 Neuchâtel", "canton": "Neuchâtel", "count": 1 }, "geometry": { "type": "Point", "coordinates": [ 6.94021, 46.994404 ] } },
{ "type": "Feature", "properties": { "name": "Morges", "address": "Avenue de Marcelin 33, 1110 Morges", "canton": "Vaud", "count": 1 }, "geometry": { "type": "Point", "coordinates": [ 6.485026, 46.517711 ] } },
{ "type": "Feature", "properties": { "name": "Neue Kantonsschule Aarau ", "address": "Schanzmättelistrasse 32, 5001 Aarau", "canton": "Aargau", "count": 1 }, "geometry": { "type": "Point", "coordinates": [ 8.04434, 47.386519 ] } },
{ "type": "Feature", "properties": { "name": "Nyon", "address": "Route de Divonne 8, 1260 Nyon", "canton": "Vaud", "count": 1 }, "geometry": { "type": "Point", "coordinates": [ 6.231683, 46.382705 ] } },
{ "type": "Feature", "properties": { "name": "Regionales Gymnasium Laufental-Thierstein", "address": "Steinackerweg 7, 4242 Laufen", "canton": "Basel-Landschaft", "count": 1 }, "geometry": { "type": "Point", "coordinates": [ 7.506567, 47.420524 ] } },
{ "type": "Feature", "properties": { "name": "Seeland Gymnasium Biel", "address": " Ländtestrasse 12, 2503 Biel", "canton": "Bern", "count": 1 }, "geometry": { "type": "Point", "coordinates": [ 7.235973, 47.133411 ] } },
{ "type": "Feature", "properties": { "name": "Wirtschaftsmittelschule", "address": null, "canton": "Appenzell Ausserrhoden", "count": 1 }, "geometry": { "type": "Point", "coordinates": [ 9.460037, 47.408394 ] } },
{ "type": "Feature", "properties": { "name": "Wirtschaftsmittelschule (Berufsmaturität)", "address": null, "canton": "Zug", "count": 1 }, "geometry": { "type": "Point", "coordinates": [ 8.510398, 47.175532 ] } }
]
}
